[
  {
    "id": "hcm-q1-xd-9",
    "name": "Cửa hàng XD số 9",
    "brand": null,
    "address": "52 Bùi Thị Xuân, Phường Bến Thành, Quận 1, TP. Hồ Chí Minh, Việt Nam",
    "ward": "Bến Thành",
    "district": "Quận 1",
    "province": "TP. Hồ Chí Minh",
    "latitude": 10.772119,
    "longitude": 106.690418,
    "notes": "Tổng hợp từ ảnh danh sách cây xăng bán xăng 97 tại TP.HCM.",
    "source": "otosigon-image",
    "status": "ACTIVE"
  },
  {
    "id": "hcm-q3-xd-13",
    "name": "Cửa hàng XD số 13",
    "brand": null,
    "address": "118 Cách Mạng Tháng 8, Phường 7, Quận 3, TP. Hồ Chí Minh, Việt Nam",
    "ward": "7",
    "district": "Quận 3",
    "province": "TP. Hồ Chí Minh",
    "latitude": 10.776932,
    "longitude": 106.683598,
    "notes": "Tổng hợp từ ảnh danh sách cây xăng bán xăng 97 tại TP.HCM.",
    "source": "otosigon-image",
    "status": "ACTIVE"
  },
  {
    "id": "hcm-q5-xd-12",
    "name": "Cửa hàng XD số 12",
    "brand": null,
    "address": "912 Võ Văn Kiệt, Phường 5, Quận 5, TP. Hồ Chí Minh, Việt Nam",
    "ward": "5",
    "district": "Quận 5",
    "province": "TP. Hồ Chí Minh",
    "latitude": 10.749469,
    "longitude": 106.674672,
    "notes": "Tổng hợp từ ảnh danh sách cây xăng bán xăng 97 tại TP.HCM.",
    "source": "otosigon-image",
    "status": "ACTIVE"
  },
  {
    "id": "hcm-q6-xd-10",
    "name": "Cửa hàng XD số 10",
    "brand": null,
    "address": "784-786 Hậu Giang, Phường 12, Quận 6, TP. Hồ Chí Minh, Việt Nam",
    "ward": "12",
    "district": "Quận 6",
    "province": "TP. Hồ Chí Minh",
    "latitude": 10.747446,
    "longitude": 106.632227,
    "notes": "Tổng hợp từ ảnh danh sách cây xăng bán xăng 97 tại TP.HCM.",
    "source": "otosigon-image",
    "status": "ACTIVE"
  },
  {
    "id": "hcm-q10-xd-11",
    "name": "Cửa hàng XD số 11",
    "brand": null,
    "address": "186 Tô Hiến Thành, Phường 15, Quận 10, TP. Hồ Chí Minh, Việt Nam",
    "ward": "15",
    "district": "Quận 10",
    "province": "TP. Hồ Chí Minh",
    "latitude": 10.780171,
    "longitude": 106.668273,
    "notes": "Tổng hợp từ ảnh danh sách cây xăng bán xăng 97 tại TP.HCM.",
    "source": "otosigon-image",
    "status": "ACTIVE"
  },
  {
    "id": "hcm-q11-xd-16",
    "name": "Cửa hàng XD số 16",
    "brand": null,
    "address": "260A Lạc Long Quân, Phường 10, Quận 11, TP. Hồ Chí Minh, Việt Nam",
    "ward": "10",
    "district": "Quận 11",
    "province": "TP. Hồ Chí Minh",
    "latitude": 10.772881,
    "longitude": 106.645067,
    "notes": "Tổng hợp từ ảnh danh sách cây xăng bán xăng 97 tại TP.HCM.",
    "source": "otosigon-image",
    "status": "ACTIVE"
  },
  {
    "id": "hcm-binh-thanh-xd-4",
    "name": "Cửa hàng XD số 4",
    "brand": null,
    "address": "167 Điện Biên Phủ, Phường 15, Bình Thạnh, TP. Hồ Chí Minh, Việt Nam",
    "ward": "15",
    "district": "Bình Thạnh",
    "province": "TP. Hồ Chí Minh",
    "latitude": 10.787074,
    "longitude": 106.694534,
    "notes": "Tổng hợp từ ảnh danh sách cây xăng bán xăng 97 tại TP.HCM.",
    "source": "otosigon-image",
    "status": "ACTIVE"
  },
  {
    "id": "hcm-binh-thanh-xd-5",
    "name": "Cửa hàng XD số 5",
    "brand": null,
    "address": "234 Bạch Đằng, Phường 24, Bình Thạnh, TP. Hồ Chí Minh, Việt Nam",
    "ward": "24",
    "district": "Bình Thạnh",
    "province": "TP. Hồ Chí Minh",
    "latitude": 10.803457,
    "longitude": 106.704736,
    "notes": "Tổng hợp từ ảnh danh sách cây xăng bán xăng 97 tại TP.HCM.",
    "source": "otosigon-image",
    "status": "ACTIVE"
  },
  {
    "id": "hcm-binh-thanh-xd-8",
    "name": "Cửa hàng XD số 8",
    "brand": null,
    "address": "135 Nơ Trang Long, Phường 12, Bình Thạnh, TP. Hồ Chí Minh, Việt Nam",
    "ward": "12",
    "district": "Bình Thạnh",
    "province": "TP. Hồ Chí Minh",
    "latitude": 10.812105,
    "longitude": 106.69598,
    "notes": "Tổng hợp từ ảnh danh sách cây xăng bán xăng 97 tại TP.HCM.",
    "source": "otosigon-image",
    "status": "ACTIVE"
  },
  {
    "id": "hcm-q2-xd-6",
    "name": "Cửa hàng XD số 6",
    "brand": null,
    "address": "9Bis Trần Não, Phường An Khánh, Quận 2, TP. Hồ Chí Minh, Việt Nam",
    "ward": "An Khánh",
    "district": "Quận 2",
    "province": "TP. Hồ Chí Minh",
    "latitude": 10.788407,
    "longitude": 106.729725,
    "notes": "Tổng hợp từ ảnh danh sách cây xăng bán xăng 97 tại TP.HCM.",
    "source": "otosigon-image",
    "status": "ACTIVE"
  },
  {
    "id": "hcm-go-vap-xd-18",
    "name": "Cửa hàng XD số 18",
    "brand": null,
    "address": "A21 Quang Trung, Phường 10, Gò Vấp, TP. Hồ Chí Minh, Việt Nam",
    "ward": "10",
    "district": "Gò Vấp",
    "province": "TP. Hồ Chí Minh",
    "latitude": 10.831767,
    "longitude": 106.66845,
    "notes": "Tổng hợp từ ảnh danh sách cây xăng bán xăng 97 tại TP.HCM.",
    "source": "otosigon-image",
    "status": "ACTIVE"
  },
  {
    "id": "hcm-go-vap-xd-19",
    "name": "Cửa hàng XD số 19",
    "brand": null,
    "address": "247 Lê Quang Định, Phường 1, Gò Vấp, TP. Hồ Chí Minh, Việt Nam",
    "ward": "1",
    "district": "Gò Vấp",
    "province": "TP. Hồ Chí Minh",
    "latitude": 10.820694,
    "longitude": 106.689417,
    "notes": "Tổng hợp từ ảnh danh sách cây xăng bán xăng 97 tại TP.HCM.",
    "source": "otosigon-image",
    "status": "ACTIVE"
  },
  {
    "id": "hcm-tan-binh-xd-17",
    "name": "Cửa hàng XD số 17",
    "brand": null,
    "address": "401 Trường Chinh, Phường 14, Tân Bình, TP. Hồ Chí Minh, Việt Nam",
    "ward": "14",
    "district": "Tân Bình",
    "province": "TP. Hồ Chí Minh",
    "latitude": 10.798689,
    "longitude": 106.642272,
    "notes": "Tổng hợp từ ảnh danh sách cây xăng bán xăng 97 tại TP.HCM.",
    "source": "otosigon-image",
    "status": "ACTIVE"
  },
  {
    "id": "hcm-tan-phu-xd-24",
    "name": "Cửa hàng XD số 24",
    "brand": null,
    "address": "64 Lũy Bán Bích, Phường Tân Thới Hòa, Tân Phú, TP. Hồ Chí Minh, Việt Nam",
    "ward": "Tân Thới Hòa",
    "district": "Tân Phú",
    "province": "TP. Hồ Chí Minh",
    "latitude": 10.764941,
    "longitude": 106.635109,
    "notes": "Tổng hợp từ ảnh danh sách cây xăng bán xăng 97 tại TP.HCM.",
    "source": "otosigon-image",
    "status": "ACTIVE"
  },
  {
    "id": "hcm-q12-xd-3",
    "name": "Cửa hàng XD số 3",
    "brand": null,
    "address": "16A Quốc lộ 22, Phường Trung Mỹ Tây, Quận 12, TP. Hồ Chí Minh, Việt Nam",
    "ward": "Trung Mỹ Tây",
    "district": "Quận 12",
    "province": "TP. Hồ Chí Minh",
    "latitude": 10.852898,
    "longitude": 106.609076,
    "notes": "Tổng hợp từ ảnh danh sách cây xăng bán xăng 97 tại TP.HCM.",
    "source": "otosigon-image",
    "status": "ACTIVE"
  },
  {
    "id": "hcm-q12-xd-20",
    "name": "Cửa hàng XD số 20",
    "brand": null,
    "address": "387A Lê Văn Khương, Phường Hiệp Thành, Quận 12, TP. Hồ Chí Minh, Việt Nam",
    "ward": "Hiệp Thành",
    "district": "Quận 12",
    "province": "TP. Hồ Chí Minh",
    "latitude": 10.879946,
    "longitude": 106.648714,
    "notes": "Tổng hợp từ ảnh danh sách cây xăng bán xăng 97 tại TP.HCM.",
    "source": "otosigon-image",
    "status": "ACTIVE"
  },
  {
    "id": "hcm-binh-chanh-xd-21",
    "name": "Cửa hàng XD số 21",
    "brand": null,
    "address": "Lô V1, KCN Lê Minh Xuân, Bình Chánh, TP. Hồ Chí Minh, Việt Nam",
    "ward": null,
    "district": "Bình Chánh",
    "province": "TP. Hồ Chí Minh",
    "latitude": 10.740499,
    "longitude": 106.540176,
    "notes": "Tổng hợp từ ảnh danh sách cây xăng bán xăng 97 tại TP.HCM.",
    "source": "otosigon-image",
    "status": "ACTIVE"
  }
]
